{"type":"Topology","objects":{"department_store":{"type":"GeometryCollection","bbox":[100.36681025516799,13.639913767033647,100.85557246051417,13.921209928843597],"geometries":[{"type":"Point","properties":{"name":"สำนักงานใหญ่ เทสโก้โลตัส","address":"699 อาคารโมเดอร์นฟอร์มทาวเวอร์ กรุงเทพฯ","dcode":"1034","tel":"02-7229640-79","x":677546.337,"y":1518541.986},"coordinates":[5630,3225]},{"type":"Point","properties":{"name":"คาร์ฟู สาขาสุขาภิบาล 3","address":"643/7 ถ.สุขาภิบาล 3 แขวงหัวหมาก กรุงเทพฯ","dcode":"1006","tel":"02-735-3062-73","x":679289.837,"y":1523002.276},"coordinates":[5965,4655]},{"type":"Point","properties":{"name":"เทสโก้โลตัส สาขาจรัญสนิทวงศ์","address":"244 ถ.จรัญสนิทวงศ์70 แขวงบางพลัด กรุงเทพฯ","dcode":"1025","tel":"02-4348800","x":662407.555,"y":1524780.378},"coordinates":[2773,5261]},{"type":"Point","properties":{"name":"เทสโก้โลตัส สาขาแจ้งวัฒนะ","address":"300 ถ.แจ้งวัฒนะ แขวงทุ่งสองห้อง เขตหลักสี่ กรุงเทพฯ","dcode":"1041","tel":"02-9907555-79","x":668143.668,"y":1536754.033},"coordinates":[3873,9097]},{"type":"Point","properties":{"name":"เทสโก้โลตัส สาขาซีคอน สแควร์","address":"55/2 ถ.ศรีนครินทร์ แขวงหนองบอน เขตประเวศ กรุงเทพฯ","dcode":"1032","tel":"02-7219088-117","x":678228.167,"y":1514330.177},"coordinates":[5753,1871]},{"type":"Point","properties":{"name":"เทสโก้โลตัส สาขาบางแค","address":"266 ถ.เพชรเกษม แขวงบางแคเหนือ เขตบางแค","dcode":"1040","tel":"02-8044800-35","x":653389.549,"y":1516431.922},"coordinates":[1058,2597]},{"type":"Point","properties":{"name":"เทสโก้โลตัส สาขาบางกะปิ","address":"3109 ถ.ลาดพร้าว แขวงคลองจั่น เขตบางกะปิ","dcode":"1006","tel":"02-730444","x":677772.472,"y":1522636.304},"coordinates":[5678,4540]},{"type":"Point","properties":{"name":"เทสโก้โลตัส สาขาบางปะกอก","address":"538/2 ม.4ถ.สุขสวัสดิ์ 27 แขวงบางปะกอก เขตราษฎรบูรณะ กรุงเทพฯ","dcode":"1024","tel":"02-8721500-24","x":662403.68,"y":1512659.701},"coordinates":[2758,1367]},{"type":"Point","properties":{"name":"เทสโก้โลตัส สาขาประชาชื่น","address":"829 ถ.ประชาราษฎรสาย 2 แขวงบางซื่อ เขตบางซื่อ กรุงเทพฯ","dcode":"1029","tel":"02-8721500-24","x":665865.896,"y":1526796.529},"coordinates":[3430,5902]},{"type":"Point","properties":{"name":"เทสโก้โลตัส สาขาพระราม 2","address":"88/2528 ม.6 ถ.พระรามที่ 2 แขวงแสมดำ เขตบางขุนเทียน กรุงเทพฯ","dcode":"1021","tel":"02-8928130-55","x":653471.979,"y":1509226.93},"coordinates":[1066,281]},{"type":"Point","properties":{"name":"เทสโก้โลตัส สาขาพระราม 3","address":"172 ถ.นราธิวาสราชนครินทร์ แขวงช่องนนทรี เขตยานนาวา กรุงเทพฯ","dcode":"1012","tel":"02-6810920-44","x":666101.895,"y":1514582.829},"coordinates":[3460,1978]},{"type":"Point","properties":{"name":"เทสโก้โลตัส สาขาพระราม 4","address":"3300 ถ.พระราม 4 แขวงคลองตัน เขตคลองเตย กรุงเทพฯ","dcode":"1033","tel":"02-6728585-90","x":669508.71,"y":1517122.482},"coordinates":[4108,2786]},{"type":"Point","properties":{"name":"เทสโก้โลตัส สาขามีนบุรี","address":"73 ม.18 ถ.สุวินทวงศ์  แขวงมีนบุรี เขตมีนบุรี กรุงเทพฯ","dcode":"1010","tel":"02-6420500-30","x":686816.43,"y":1528149.24},"coordinates":[7396,6291]},{"type":"Point","properties":{"name":"เทสโก้โลตัส สาขาฟอร์จูน ทาวน์","address":"7/1 ฟอร์จูนทาวเวอร์ ถ.รัชดา แขวงดินแดง เขตดินแดง กรุงเทพฯ","dcode":"1026","tel":"02-6420500-30","x":669161.1,"y":1521358.24},"coordinates":[4047,4148]},{"type":"Point","properties":{"name":"เทสโก้โลตัส สาขารามอินทรา","address":"14/2 ม.8 ถ.ประดิษฐมนูธรรม แขวงลาดพร้าว เขตลาดพร้าว กรุงเทพฯ","dcode":"1038","tel":"02-9359800-19","x":674560.584,"y":1526445.039},"coordinates":[5075,5771]},{"type":"Point","properties":{"name":"เทสโก้โลตัส สาขาถนนลาดพร้าว-ถนนพหลโยธิน","address":"1190 ถ.พหลโยธิน แขวงจอมพล เขตจตุจักร กรุงเทพฯ","dcode":"1030","tel":"02-930-9444","x":668948.13,"y":1528054.028},"coordinates":[4015,6300]},{"type":"Point","properties":{"name":"เทสโก้โลตัส สุขาภิบาล 1","address":"629 ม.10 ถ.นวมินทร์ แขวงคลองกุ่ม เขตบึงกุ่ม กรุงเทพฯ","dcode":"1027","tel":"08-9477720-25","x":679066.106,"y":1528915.357},"coordinates":[5931,6555]},{"type":"Point","properties":{"name":"เทสโก้โลตัส สาขาสุขุมวิท50","address":"1710 ถ.สุขุมวิท แขวงพระโขนง เขตพระโขนง กรุงเทพฯ","dcode":"1033","tel":"02-7414444","x":673114.69,"y":1515706.725},"coordinates":[4788,2324]},{"type":"Point","properties":{"name":"เทสโก้โลตัส สาขาหลักสี่","address":"559 ม.3 ถ.พหลโยธิน แขวงอนุสาวรีย์ กรุงเทพฯ","dcode":"1005","tel":"02-955-7500-24","x":672967.539,"y":1534944.244},"coordinates":[4784,8505]},{"type":"Point","properties":{"name":"คาร์ฟู สาขาสุวินทวงศ์","address":"123 ม.16 ถ.สุวินทวงศ์  แขวงมีนบุรี เขตมีนบุรี กรุงเทพฯ","dcode":"1010","tel":"02-9064814-21","x":685880.307,"y":1528181.457},"coordinates":[7219,6304]},{"type":"Point","properties":{"name":"คาร์ฟู สาขาเพชรเกษม","address":"29/1 ม.11 ถ.เพชชรเกษม แขวงหนองค้างพลู เขตหนองแขม กรุงเทพฯ","dcode":"1023","tel":"02-807-4754-60","x":647799.174,"y":1515978.343},"coordinates":[0,2461]},{"type":"Point","properties":{"name":"คาร์ฟู สาขารามอินทรา","address":"59 ม.4 ถ.รามอินทรา กม.25 แขวงอนุสาวรีย์ เขตบางเขน กรุงเทพฯ","dcode":"1005","tel":"02-9717555-62","x":674790.202,"y":1532984.07},"coordinates":[5127,7871]},{"type":"Point","properties":{"name":"คาร์ฟู สาขาพระราม 4","address":"2929 ถ.พระราม 4 แขวงคลองตัน เขตคลองเตย กรุงเทพฯ","dcode":"1033","tel":"02-971-7555-62","x":669589.625,"y":1517179.689},"coordinates":[4123,2805]},{"type":"Point","properties":{"name":"คาร์ฟู สาขาบางแค","address":"110/6 ม.9 ถ.เพชรเกษม แขวงบางหว้า เขตภาษีเจริญ กรุงเทพฯ","dcode":"1022","tel":"02-8047340-43","x":655035.365,"y":1516275.97},"coordinates":[1369,2543]},{"type":"Point","properties":{"name":"คาร์ฟู สาขารัชดาภิเษก","address":"125 ถ.รัชดาภิเษก แขวงดินแดง เขตดินแดง กรุงเทพฯ","dcode":"1026","tel":"02-354-0570","x":669906.673,"y":1522705.833},"coordinates":[4190,4580]},{"type":"Point","properties":{"name":"คาร์ฟู สาขาบางบอน","address":"19/164 ม.6 ถ.เอกชัย แขวงบางบอน เขตบางบอน กรุงเทพฯ","dcode":"1050","tel":"02-898-0991-8","x":655210.777,"y":1512674.151},"coordinates":[1398,1386]},{"type":"Point","properties":{"name":"คาร์ฟู สาขาบางปะกอก","address":"278 ม.1 ถ.สุขสวัสดิ์ แขวงบางปะกอก เขตราษฎร์บูรณะ กรุงเทพฯ","dcode":"1024","tel":"02-898-0991-8","x":661217.268,"y":1513216.795},"coordinates":[2535,1548]},{"type":"Point","properties":{"name":"คาร์ฟู สาขาอ่อนนุช","address":"114 ซ.อ่อนนุช 1 ถ.สุขุมวิท แขวงพระโขนงเหนือ เขตวัฒนา กรุงเทพฯ","dcode":"1039","tel":"02-311-8099","x":673183.018,"y":1516142.302},"coordinates":[4801,2464]},{"type":"Point","properties":{"name":"คาร์ฟู สาขาลาดพร้าว","address":"669 ถ.ลาดพร้าว แขวงจอมพล เขตจตุจักร กรุงเทพฯ","dcode":"1030","tel":"02-983-7333","x":669249.458,"y":1527344.096},"coordinates":[4071,6071]},{"type":"Point","properties":{"name":"คาร์ฟู สาขาอิสรภาพ","address":"2 ถ.อิสรภาพ วัดกัลยา  เขตธนบุรี กรุงเทพฯ","dcode":"1015","tel":"02-890-3000","x":661351.565,"y":1518683.007},"coordinates":[2567,3304]},{"type":"Point","properties":{"name":"คาร์ฟู สาขาสุขาภิบาล 1","address":"13/40 ถ.นวมินทร์ ม.9 แขวบคลองกุ่ม เขตบึงกุ่ม กรุงเทพฯ","dcode":"1027","tel":"02-9468700","x":678077.477,"y":1527733.429},"coordinates":[5742,6177]},{"type":"Point","properties":{"name":"คาร์ฟู สาขาหนองจอก","address":"34 ม 1 ถ.เลียบทวี แขวงกระทุ่มราย เขตหนองจอก กรุงเทพฯ","dcode":"1003","tel":"02-9857800","x":700540.478,"y":1532530.709},"coordinates":[9999,7666]},{"type":"Point","properties":{"name":"คาร์ฟู สาขาพระราม 2","address":"189/1 ม.6 ถ.พระรามที่2 แขวงแสมดำ เขตบางขุนเทียน กรุงเทพฯ","dcode":"1021","tel":"02-4513222","x":653184.561,"y":1509138.63},"coordinates":[1011,254]},{"type":"Point","properties":{"name":"คาร์ฟู สาขาสวนหลวง","address":"314-314/1 ถ.เฉลิมพระเกียรติ ร.9 แขวงหนองบอน เขตประเวศ กรุงเทพฯ","dcode":"1032","tel":"02-3282100","x":680432.488,"y":1513701.846},"coordinates":[6169,1664]},{"type":"Point","properties":{"name":"เทสโก้โลตัส สาขาปิ่นเกล้า","address":"9 ม.6 ถ.บรมราชชนนี แขวงอรุณอัมรินทร์ เขตบางกอกน้อย กรุงเทพฯ","dcode":"1020","tel":"02-8845565","x":659778.487,"y":1523491.866},"coordinates":[2275,4853]},{"type":"Point","properties":{"name":"คาร์ฟู สาขาสายไหม","address":"89-89/3 ม.3 ถ.สายไหม แขวงสายไหม เขตสายไหม กรุงเทพฯ","dcode":"1042","tel":"02-976-4300","x":681591.532,"y":1539653.478},"coordinates":[6423,9999]},{"type":"Point","properties":{"name":"บิ๊กซี สำนักงานใหญ่","address":"97/11 ชั้น 6 ถ.ราชดำริห์ แขวงลุมพินี เขตปทุมวัน","dcode":"1007","tel":"02655-0666","x":666612.562,"y":1520329.375},"coordinates":[3564,3823]},{"type":"Point","properties":{"name":"บิ๊กซี สาขาดอนเมือง","address":"1 ถ.พหลโยธิน ซ.พหลโยธิน 50 แขวงอนุสาวรีย์ เขตบางเขน กรุงเทพฯ","dcode":"1005","tel":"02-973-7222-36","x":673493.87,"y":1536187.703},"coordinates":[4885,8903]},{"type":"Point","properties":{"name":"บิ๊กซี สาขาดาวคนอง","address":"1050 ถ.สมเด็จพระเจ้าตากสิน  แขวงบุคโล เขตธนบุรี กรุงเทพฯ","dcode":"1015","tel":"02-876-2777-91","x":660338.369,"y":1514935.507},"coordinates":[2371,2102]},{"type":"Point","properties":{"name":"บิ๊กซี สาขาหัวหมาก","address":"2001 ถ.รามคำแหง แขวงหัวหมาก เขตบางกะปิ กรุงเทพฯ","dcode":"1006","tel":"02-718-6000","x":674308.45,"y":1521331.246},"coordinates":[5021,4129]},{"type":"Point","properties":{"name":"บิ๊กซี สาขาบางนา","address":"111 ถ.บางนา - ตราด แขวงบางนส เขตบางนา กรุงเทพฯ","dcode":"1047","tel":"02-2744-3260-73","x":676891.432,"y":1511676.983},"coordinates":[5497,1021]},{"type":"Point","properties":{"name":"บิ๊กซี สาขาสะพานควาย","address":"618/1 ถ. พหลโยธิน แขวงสามเสนใน เขตพญาไท กรุงเทพฯ","dcode":"1014","tel":"02-616-7555","x":667522.372,"y":1525149.141},"coordinates":[3742,5370]},{"type":"Point","properties":{"name":"บิ๋กซี สาขาลาดพร้าว","address":"2539 ถ.ลาดพร้าว83 แขวงคลองเจ้าคุณสิงห์ เขตวังทองหลาง กรุงเทพฯ","dcode":"1045","tel":"02-934-9888-96","x":674299.187,"y":1524592.278},"coordinates":[5023,5176]},{"type":"Point","properties":{"name":"บิ๊กซี สาขาราชดำริ","address":"97/11 ถ.ราชดำริห์ แขวงลุมพินี เขตปทุมวัน กรุงเทพฯ","dcode":"1007","tel":"02-250-4888","x":666637.195,"y":1520161.266},"coordinates":[3568,3769]},{"type":"Point","properties":{"name":"บิ๊กซี สาขาแฟชั่นไอส์แลนด์","address":"2539 ถ.ลาดพร้าว แขวงวังทองหลาง เขตวังทองหลาง กรุงเทพฯ","dcode":"1043","tel":"02-9349888-96","x":681467.047,"y":1529100.847},"coordinates":[6385,6609]},{"type":"Point","properties":{"name":"บิ๊กซี สาขาวงศ์สว่าง","address":"888 ถ.พิบูลย์สงครา แขวงบางซื่อ เขตบางซื่อ กรุงเทพฯ","dcode":"1029","tel":"02-587-2055","x":665182.21,"y":1529104.977},"coordinates":[3304,6645]},{"type":"Point","properties":{"name":"บิ๊กซี สาขาธนบุรี ปากท่อ","address":"56 ม.6 แขวงแสมดำ เขตบางขุนเทียน กรุงเทพฯ","dcode":"1021","tel":"02-8957600","x":655789.893,"y":1510812.011},"coordinates":[1506,786]},{"type":"Point","properties":{"name":"บิ๊กซี  สาขาราษฎร์บูรณะ","address":"19 ม. 9 ถ.ราษฎร์บูรระ แขวงบางปะกอก เขตราษฎร์บูรณะ กรุงเทพฯ","dcode":"1024","tel":"02-873-1200","x":662245.136,"y":1513199.729},"coordinates":[2729,1541]},{"type":"Point","properties":{"name":"บิ๊กซี สาขาแจ้งวัฒนะ","address":"96 ม.1 ถ.แจ้งวัฒนะ แขวงหลักสี่ เขตหลักสี่ กรุงเทพฯ","dcode":"1041","tel":"02-573-5800","x":668644.647,"y":1536498.671},"coordinates":[3968,9014]},{"type":"Point","properties":{"name":"สำนักงานใหญ่ บริษัท สหฟาร์ม จำกัด","address":"44/4 ถ.นวมินทร์ แขวงคลองกุ่ม เขตบึงกุ่ม กรุงเทพฯ","dcode":"1027","tel":"02-510-5737","x":679386.427,"y":1529899.082},"coordinates":[5992,6870]},{"type":"Point","properties":{"name":"ห้างสรรพสินค้า ตั้งฮั่วเส็ง สาขาธนบุรี","address":"289 ถ.สิรินธร แขวงบางบำหรุ เขตบางพลัด กรุงเทพฯ","dcode":"1025","tel":"02-4340448,02-881-9500","x":660277.383,"y":1524767.577},"coordinates":[2370,5262]},{"type":"Point","properties":{"name":"ห้างสรรพสินค้า ตั้งฮั่วเส็ง สาขาบางลำพู","address":"172-182 ถ.จักรพงษ์ บางลำพู กรุงเทพฯ","dcode":"1001","tel":"02-280-0936-42","x":661906.046,"y":1521811.604},"coordinates":[2675,4309]},{"type":"Point","properties":{"name":"สำนักงานใหญ่เดอะมอลล์","address":"ถนนรามคำแหง แขวงหัวหมาก เขตบางกะปิ กรุงเทพฯ","dcode":"1006","tel":"-","x":674150.639,"y":1520844.695},"coordinates":[4990,3973]},{"type":"Point","properties":{"name":"ห้างสรรพสินค้าเดอะมอลล์ 3","address":"1911 ถนนรามคำแหง แขวงหัวหมาก เขต บางกะปิ กรุงเทพฯ","dcode":"1006","tel":"-","x":674009.193,"y":1520977.651},"coordinates":[4964,4016]},{"type":"Point","properties":{"name":"เดอะมอลล์ สาขาโฮม เฟรช มาร์ท","address":"ถนนรามคำแหง แขวงหัวหมาก เขตบางกะปิ กรุงเทพฯ","dcode":"1006","tel":"-","x":674132.65,"y":1520779.273},"coordinates":[4987,3952]},{"type":"Point","properties":{"name":"เดอะมอลล์ สาขาท่าพระ","address":"99 ถรัชดาภิเษก  แขวงบุคคโล เขตธนบุรี กรุงเทพฯ","dcode":"1015","tel":"-","x":660010.039,"y":1516538.098},"coordinates":[2310,2618]},{"type":"Point","properties":{"name":"เดอะมอลล์ สาขาบางแค","address":"275ม.2 ถ.เพชรเกษม แขวงบางแคเหนือ เขตบางแค กรุงเทพฯ","dcode":"1040","tel":"-","x":652229.434,"y":1516485.27},"coordinates":[839,2616]},{"type":"Point","properties":{"name":"เดอะมอลล์สาขาบางกะปิ","address":"3522 ถ.ลาดพร้าว แขวงคลองจั่น เขตบางกะปิ กรุงเทพฯ","dcode":"1006","tel":"-","x":677511.108,"y":1522464.742},"coordinates":[5628,4486]},{"type":"Point","properties":{"name":"ฟูดแลนด์ สำนักงานใหญ่","address":"2675 ถ.ลาดพร้าว ซ.95 แขวงวังทองหลาง เขตวังทองหลาง กรุงเทพฯ","dcode":"1045","tel":"02-530-0220-22","x":675473.315,"y":1523910.894},"coordinates":[5244,4955]},{"type":"Point","properties":{"name":"ฟูดแลนด์ สาขาพัฒน์พงศ์","address":"9 ชั้นล่าง ถ.พัฒน์พงษ์ แขวงสุริยวงศ์ เขตบางรัก กรุงเทพฯ","dcode":"1004","tel":"02-234-4558","x":665699.889,"y":1518368.547},"coordinates":[3389,3195]},{"type":"Point","properties":{"name":"ฟูดแลนด์ สาขาหัวหมาก","address":"1851 ถ.สุขุมวิท แขวงหัวหมาก เขตบางกะปิ กรุงเทพฯ","dcode":"1006","tel":"02-314-6763","x":673822.472,"y":1520679.5},"coordinates":[4928,3920]},{"type":"Point","properties":{"name":"ฟูดแลนด์ สาขาเพชรบุรี","address":"2443 ถ.เพชรบุรีตัดใหม่ แขวงบางกะปิ เขตห้วยขวาง กรุงเทพฯ","dcode":"1017","tel":"02-318-2063","x":672030.801,"y":1519956.976},"coordinates":[4588,3692]},{"type":"Point","properties":{"name":"ฟูดแลนด์ สาขารามอินทรา","address":"78/5 ม.4 ถ.รามอินทรา แขวงอนุสาวรีย์ เขตบางเขน กรุงเทพฯ","dcode":"1005","tel":"02-521-2560","x":675542.962,"y":1532856.195},"coordinates":[5269,7829]},{"type":"Point","properties":{"name":"ฟูดแลนด์ สาขาสุขุมวิท ซอย 5","address":"87 อาคารนายเลิศ ชั้นล่าง สุขมวิท 5 ถ.สุขุมวิท คลองเตยเหนือ กรุงเทพฯ","dcode":"1039","tel":"02-254-2247","x":668020.587,"y":1519766.862},"coordinates":[3829,3639]},{"type":"Point","properties":{"name":"ฟูดแลนด์ สาขาลาดพร้าว","address":"2675 หมู่ 9 ถ.ลาดพร้าว ซ.95 แขวงวังทองหลาง เขตวังทองหลาง กรุงเทพ","dcode":"1045","tel":"02-530-0220-7","x":675466.965,"y":1523893.874},"coordinates":[5243,4949]},{"type":"Point","properties":{"name":"ฟูดแลนด์ สาขาจรัญสนิทวงศ์","address":"262 ซ.จรัญสนิทวงค์ ถ.จรัญสนิทวงศ์ แขวงบ้านช่างหล่อ เขตบางกอกน้อย กรุงเทพฯฯ","dcode":"1020","tel":"02-411-3333","x":659165.82,"y":1521714.705},"coordinates":[2157,4283]},{"type":"Point","properties":{"name":"ห้างสรรพสินค้าเมอรี่คิงส์ สาขาลาดหญ้า","address":"2 ถ.ลาดหญ้า แขวงคลองสาน เขตคลองสาน กรุงเทพฯ","dcode":"1018","tel":"02-437-6362","x":661480.837,"y":1517848.143},"coordinates":[2590,3036]},{"type":"Point","properties":{"name":"ห้างสรรพสินค้าเซ็นทรัล สาขาวังบูรพา","address":"ถนนพาหุรัด แขวงวังบูรพาภิรมย์ เขตพระนคร กรุงเทพฯ","dcode":"1001","tel":"-","x":662384.981,"y":1520020.865},"coordinates":[2764,3732]},{"type":"Point","properties":{"name":"ห้างสรรพสินค้า เมอรี่คิงส์  สาขาวังบูรพา","address":"902-908 ถ.มหาชัย แขวงวังบูรพา เขตพระนคร กรุงเทพฯ","dcode":"1001","tel":"02-224-8901-5","x":662424.774,"y":1520084.146},"coordinates":[2771,3753]},{"type":"Point","properties":{"name":"ห้างสรรพสินค้าพาต้า ปิ่นเกล้า สำนักงานใหญ่","address":"125 ถ.สมเด็จพระปิ่นเกล้า แขวงบางยี่ขัน เขตบางพลัด กรุงเทพน","dcode":"1025","tel":"02-434-3333","x":660554.139,"y":1523117.523},"coordinates":[2421,4731]},{"type":"Point","properties":{"name":"ห้างสรรพสินค้ามาบุญครอง","address":"ถนนพญาไท แขวงวังใหม่ เขตปทุมวัน กรุงเทพฯ","dcode":"1007","tel":"-","x":665391.76,"y":1520008.771},"coordinates":[3332,3722]},{"type":"Point","properties":{"name":"ห้างสรรพสินค้าโตคิว สำนักงานใหญ่","address":"444 อาคารมาบุญครองเซ็นเตอร์ ถ.พญาไท แขวงวังใหม่ เขตปทุมวัน กรุงเทพฯ","dcode":"1007","tel":"02-2217-9023","x":665393.551,"y":1519962.205},"coordinates":[3333,3707]},{"type":"Point","properties":{"name":"ห้างสรรพสินค้าเซ็นทรัลปิ่นเกล้า","address":"ถ.บรมราชชนนี  แขวงอรุณอัมรินทร์  เขตบางกอกน้อย กรุงเทพฯ","dcode":"1020","tel":"02-8848000-2","x":659550.654,"y":1523591.956},"coordinates":[2232,4885]},{"type":"Point","properties":{"name":"ห้างสรรพสินค้า จัสโก้ สาขารัชดาภิเษก","address":"129 ถ.รัชดาภิเษก แขวงดินแดง เขตดินแดง กรุงเทพฯ","dcode":"1026","tel":"02-246-4694-8","x":669722.157,"y":1522645.986},"coordinates":[4155,4561]},{"type":"Point","properties":{"name":"ห้างสรรพสินค้า จัสโก้ สาขาสุขุมวิท71","address":"140 ถ.สุขุมวิท71 แขวงพระโขนงเหนือ เขตวัฒนา กรุงเทพฯ","dcode":"1039","tel":"02-382-2001-5","x":672681.905,"y":1517190.251},"coordinates":[4708,2802]},{"type":"Point","properties":{"name":"ห้างสรรพสินค้า จัสโก้ สาขาประชาอุทิศ","address":"11/12 ม.1 ถ.ประชาอุทิศ แขวงทุ่งครุ เขตทุ่งครุ กรุงเทพฯ","dcode":"1049","tel":"02-873-5032-7","x":662381.281,"y":1508404.876},"coordinates":[2749,0]},{"type":"Point","properties":{"name":"ห้างสรรพสินค้า จัสโก้ สาขา ศรีนครินทร์","address":"2669 ถ.พัฒนาการ แขวงสวนหลวง เขตสวนหลวง","dcode":"1034","tel":"02-2322-7002-8","x":677589.79,"y":1519112.185},"coordinates":[5639,3408]},{"type":"Point","properties":{"name":"สยามแม็คโครจำกัด สาขาบางบอน","address":"40/8 ม10 ถ.สายวงแหวนแยกเอกชัย - เพชรเกษม แขวงบางบอน เขตบางบอน กรุงเทพฯ","dcode":"1050","tel":"02-4168080-90","x":652065.773,"y":1511038.759},"coordinates":[802,866]},{"type":"Point","properties":{"name":"สยามแม็คโครจำกัด สาขาลาดพร้าว","address":"3498 ถ.ลาดพร้าว แขวงคลองจั่น เขตบางกะปิ กรุงเทพฯ","dcode":"1006","tel":"02-375-2789","x":677315.566,"y":1522730.978},"coordinates":[5591,4572]},{"type":"Point","properties":{"name":"สยามแม็คโครจำกัด สาขาจรัญสนิทวงศ์","address":"521-521/7 ถ.จรัญสนิทวงศ์ แขวงบางขุนศรี เขตบางกอกน้อย กรุงเทพฯ","dcode":"1020","tel":"02-864-5714-33","x":658953.893,"y":1521847.99},"coordinates":[2117,4326]},{"type":"Point","properties":{"name":"สยามแม็คโคร สาขาสาธร (นราธิวาส)","address":"1 ถ.นราธิวาสราชนครินทร์ แขวงทุ่งวัดดอน เขตสาธร กรุงเทพฯ","dcode":"1028","tel":"02-676-0676","x":665988.376,"y":1516170.993},"coordinates":[3441,2488]},{"type":"Point","properties":{"name":"สยามแม็คโคร สาขาสามเสน","address":"935/11 ถ.สามเสน แขวงถนนนครไชยศรี เขตดุสิต กรุงเทพฯ","dcode":"1002","tel":"02-241-8400","x":663540.426,"y":1525140.275},"coordinates":[2988,5375]},{"type":"Point","properties":{"name":"ห้างสรรพสินค้าเซ็นทรัล สาขาสีลม","address":"306 ถ.สีลม แขวงสุริยวงศ์ เขตบางรัก กรุงเทพฯ","dcode":"1004","tel":"02-101-8124-37","x":664396.543,"y":1517754.705},"coordinates":[3141,3000]},{"type":"Point","properties":{"name":"ห้างสรรพสินค้า เซ็นทรัลชิดลม","address":"ถ.เพลินจิต แขวงลุมพินี เขตปทุมวัน กรุงเทพฯ","dcode":"1007","tel":"02-7937777","x":666967.312,"y":1519996.985},"coordinates":[3630,3715]},{"type":"Point","properties":{"name":"ห้างสรรพสินค้า เซ็นทรัลพระราม 3","address":"79/3 ถ.สาธุประดิษฐ์ แขวงช่องนนทรี เขตยานนาวา กรุงเทพฯ","dcode":"1012","tel":"-","x":666270.723,"y":1514819.91},"coordinates":[3492,2053]},{"type":"Point","properties":{"name":"ห้างสรรพสินค้าโรบินสัน บางรัก","address":"1522 ถ.เจริญกรุง แขวงบางรัก เขตบางรัก กรุงเทพฯ","dcode":"1004","tel":"-","x":663835.117,"y":1517233.544},"coordinates":[3035,2834]},{"type":"Point","properties":{"name":"ห้างสรรพสินค้าโรบินสัน รัชดา","address":"139 ถ.รัชดาภิเษก แขวงดินแดง เขตดินแดง กรุงเทพฯ","dcode":"1026","tel":"02-2482626-35,02-2245300-9","x":669962.215,"y":1522843.304},"coordinates":[4200,4624]},{"type":"Point","properties":{"name":"ห้างสรรพสินค้าโรบินสัน สุขุมวิท","address":"259 ถ.สุขุมวิท แขวงคลองเตยเหนือ เขตวัฒนา กรุงเทพฯ","dcode":"1039","tel":"02-6511533-42,022525121","x":668599.051,"y":1519332.172},"coordinates":[3938,3498]},{"type":"Point","properties":{"name":"ห้างสรรพสินค้าโรบินสัน บางแค","address":"110/5 หมู่ 9 ถ.เพชรเกษม แขวงบางหว้า เขตภาษีเจริญ กรุงเทพฯ","dcode":"1022","tel":"02-455-0143-45","x":655072.887,"y":1516348.305},"coordinates":[1376,2567]},{"type":"Point","properties":{"name":"ห้างสรรพสินค้าโรบินสัน ศรีนครินทร์","address":"904 /1 หมู่ 6 ถ.ศรีนครินทร์ แขวงหนองบอน เขตประเวศ กรุงเทพฯ","dcode":"1032","tel":"02-721-8990-9","x":678258.73,"y":1514625.545},"coordinates":[5759,1966]},{"type":"Point","properties":{"name":"ห้างสรรพสินค้าโรบินสัน แฟชั่นไอแลนด์","address":"5/7 ม. 7 ถ.รามอินทรา แขวงคันนายาว เขตคันนายาว กรุงเทพฯ","dcode":"1043","tel":"02-9475320-62","x":681430.96,"y":1528944.654},"coordinates":[6378,6559]},{"type":"Point","properties":{"name":"ห้างสรรพสินค้าโรบินสัน ลาดหญ้า","address":"99 ถ.ลาดหญ้า แขวงสมเด็จเจ้าพระยา เขตคลองสาน กรุงเทพฯ","dcode":"1018","tel":"02-4370111,024370104-5","x":661637.655,"y":1518034.04},"coordinates":[2620,3095]},{"type":"Point","properties":{"name":"ห้างสรรพสินค้าบางลำภู (ประชาราษฎร์2)","address":"162/1 ถ.ประชาราษฎร์ สาย 2 แขวงบางซื่อ เขตบางซื่อ กรุงเทพฯ","dcode":"1029","tel":"02-912-7600-6","x":664751.715,"y":1526771.899},"coordinates":[3219,5897]},{"type":"Point","properties":{"name":"ห้างสรรพสินค้าบางลำภู","address":"85/1 ถ.ตานี แขวงตลาดยอด เขตพระนคร กรุงเทพฯ","dcode":"1001","tel":"02-2822507-10","x":661992.088,"y":1521770.674},"coordinates":[2691,4295]},{"type":"Point","properties":{"name":"ห้างสรรพสินค้าเซ็นทรัล สาขาสีลมคอมเพล็กซ์","address":"191 ถ.สีลม แขวงสีลม เขตบางรัก กรุงเทพฯ","dcode":"1004","tel":"02-231 3333","x":665961.065,"y":1518205.481},"coordinates":[3438,3142]},{"type":"Point","properties":{"name":"ห้างสรรพสินค้าเซ็นทรัล สาขารามอินทรา","address":"109/9 ม.3 ถ.รามอินทรา แขวงอนุสาวรีย์ เขตบางเขน กรุงเทพฯ","dcode":"1005","tel":"02-797 8000","x":673090.397,"y":1534147.132},"coordinates":[4806,8249]},{"type":"Point","properties":{"name":"ห้างสรรพสินค้าเซ็นทรัล บางนา","address":"หมู่ 12 ถ.บางนา-ตราด แขวงบางนา เขตบางนา กรุงเทพฯ","dcode":"1047","tel":"02-7255000","x":676760.028,"y":1511745.348},"coordinates":[5472,1043]},{"type":"Point","properties":{"name":"ห้างสรรพสินค้าเซ็นทรัล สาขาลาดพร้าว","address":"1697 ถ.พหลโยธิน แขวงจตุจักร เขตจตุจักร กรุงเทพฯ","dcode":"1030","tel":"02-9371716","x":668632.45,"y":1527959.159},"coordinates":[3955,6270]},{"type":"Point","properties":{"name":"ห้างสรรพสินค้าเดอะมอลล์ สาขารามคำแหง(2)","address":"1988/2 ถ.รามคำแหง แขวงหัวหมาก เขตบางกะปิ กรุงเทพฯ","dcode":"1006","tel":"-","x":674190.107,"y":1520697.624},"coordinates":[4998,3925]},{"type":"Point","properties":{"name":"ห้างสรรพสินค้าเดอะมอลล์ สาขารามคำแหง (4)","address":"1911 ถ.รามคำแหง แขวงหัวหมาก เขตบางกะปิ กรุงเทพฯ","dcode":"1006","tel":"-","x":674126.795,"y":1521085.113},"coordinates":[4986,4050]},{"type":"Point","properties":{"name":"ศูนย์การค้าสยามเซ็นเตอร์","address":"ถ.พระราม 1 แขวงปทุมวัน เขตปทุมวัน กรุงเทพฯ","dcode":"1007","tel":"-","x":665713.562,"y":1520193.544},"coordinates":[3393,3781]},{"type":"Point","properties":{"name":"ห้างสรรพสินค้าเซ็นทรัลวงศ์สว่าง","address":"888 ถ.พิบูลสงคราม แขวงบางซื่อ เขตบางซื่อ กรุงเทพฯ","dcode":"1029","tel":"-","x":664297.847,"y":1526212.505},"coordinates":[3133,5718]},{"type":"Point","properties":{"name":"ห้างสรรพสินค้าเอดิสัน","address":"ถ.สามเสน แขวงนครไชยศรี เขตดุสิต กรุงเทพฯ","dcode":"1002","tel":"-","x":663346.694,"y":1524289.452},"coordinates":[2951,5102]},{"type":"Point","properties":{"name":"ห้างฟอร์เอ็นเตอร์ไพรซ์ จำกัด (สำนักงานใหญ่)","address":"644 ถ.สามเสน แขวงนครไชยศรี เขตดุสิต กรุงเทพฯ","dcode":"1002","tel":"02241-3111","x":663384.439,"y":1524340.023},"coordinates":[2958,5118]},{"type":"Point","properties":{"name":"ห้างวันเดอร์ ดีพาร์ทเม้นสโตร์","address":"24/9 ถ.เพชรเกษม แขวงบางแค เขตบางแค กรุงเทพฯ","dcode":"1040","tel":"02-413-2973-5","x":653986.569,"y":1516290.492},"coordinates":[1171,2550]},{"type":"Point","properties":{"name":"บริษัทเซ็นทรัลวัตสัน จำกัด (สำนักงานใหญ่)","address":"3388/25 อาคารสิรินทร์รัตน์ ชั้น 8 ถ.พระราม 4 แขวงคลองตัน เขตคลองเตย กรุงเทพฯ","dcode":"1033","tel":"02-665-2000","x":669841.09,"y":1516983.625},"coordinates":[4170,2741]},{"type":"Point","properties":{"name":"ห้างสรรพสินค้าเมอรี่คิงส์","address":"ถ.พหลโยธิน แขวงสามเสนใน เขตพญาไท กรุงเทพฯ","dcode":"1014","tel":"-","x":667346.164,"y":1525089.375},"coordinates":[3708,5351]},{"type":"Point","properties":{"name":"ห้างสรรพสินค้า IT Square","address":"ถ.แจ้งวัฒนะ แขวงตลาดบางเขน เขตหลักสี่ กรุงเทพฯ","dcode":"1041","tel":"-","x":670840.31,"y":1535692.97},"coordinates":[4383,8750]},{"type":"Point","properties":{"name":"ห้างสรรพสินค้าจัสโก้","address":"ถ.เอกชัย แขวงบางบอน เขตบางบอน กรุงเทพฯ","dcode":"1050","tel":"-","x":654243.815,"y":1511883.857},"coordinates":[1214,1134]},{"type":"Point","properties":{"name":"ห้างสรรพสินค้าซีคอนสแควร์","address":"ถ.ศรีนครินทร์ แขวงหนองบอน เขตประเวศ กรุงเทพฯ","dcode":"1032","tel":"-","x":678245.715,"y":1514525.142},"coordinates":[5757,1933]},{"type":"Point","properties":{"name":"ห้างสรรพสินค้าดีเซมเบอร์","address":"ถ.นวมินทร์ แขวงหัวหมาก เขตบางกะปิ กรุงเทพฯ","dcode":"1006","tel":"-","x":678206.33,"y":1522347.934},"coordinates":[5759,4447]},{"type":"Point","properties":{"name":"ห้างสรรพสินค้าแมคโคร","address":"40หมู่8 ถ.กาญจนาภิเษก แขวงบางบอน เขตบางบอน กรุงเทพฯ","dcode":"1050","tel":"-","x":652300.268,"y":1511740.334},"coordinates":[847,1091]},{"type":"Point","properties":{"name":"ห้างสรรพสินค้าจัสโก้","address":"ถ.แจ้งวัฒนะ แขวงอนุสาวรีย์ เขตบางเขน กรุงเทพฯ","dcode":"1005","tel":"-","x":671809.657,"y":1535164.556},"coordinates":[4565,8578]},{"type":"Point","properties":{"name":"ห้างสรรพสินค้าจัสโก้","address":"555หมู่ 13 ถ.สีหบุรานุกิจ แขวงมีนบุรี เขตมีนบุรี กรุงเทพฯ","dcode":"1010","tel":"-","x":686258.718,"y":1527510.018},"coordinates":[7290,6087]},{"type":"Point","properties":{"name":"ห้างสรรพสินค้าโรบินสัน","address":"459/3-4 ถ.ราชวิถี แขวงถนนพญาไท เขตราชเทวี กรุงเทพฯ","dcode":"1037","tel":"-","x":666431.665,"y":1522259.587},"coordinates":[3532,4443]},{"type":"Point","properties":{"name":"ห้างสรรพสินค้าโรบินสัน","address":"1 ถ.พหลโยธิน แขวงอนุสาวรีย์เขตบางเขน กรุงเทพฯ","dcode":"1005","tel":"-","x":673569.266,"y":1536235.766},"coordinates":[4900,8919]},{"type":"Point","properties":{"name":"ห้างสรรพสินค้าเซ็นทรัล","address":"ถนนมหาไชย แขวงวังบูรพาภิรมย์  เขตพระนคร กรุงเทพฯ","dcode":"1001","tel":"-","x":662474.062,"y":1520150.823},"coordinates":[2781,3774]},{"type":"Point","properties":{"name":"ห้างสรรพสินค้าอิมพีเรียล เวิลด์ ลาดพร้าว","address":"2539 ถนนลาดพร้าว 83 แขวงคลองเจ้าคุณสิงห์ เขตวังทองหลาง","dcode":"1045","tel":"02-9343951-5","x":674358.313,"y":1524750.347},"coordinates":[5034,5227]},{"type":"Point","properties":{"name":"ห้างสรรพสินค้าเอดิสัน","address":"ถนนเลียบทางรถไฟ  แขวงบางยี่เรือ เขตธนบุรี","dcode":"1015","tel":"-","x":661301.164,"y":1517773.78},"coordinates":[2556,3012]},{"type":"Point","properties":{"name":"ห้างสรรพสินค้าเดอะมอลล์ สาขา The emporiuum","address":"622 ถ.สุขุมวิท24 แขวงคลองตัน เขตคลองเตย กรุงเทพ","dcode":"1033","tel":"02-2598694","x":669731.661,"y":1518444.925},"coordinates":[4151,3211]},{"type":"Point","properties":{"name":"ห้างฟู๊ดแลนด์ สาขาหลักสี่","address":"333/100 อาคารหลักสี่พลาซ่า ม.4 ถ.แจ้งวัฒนะ แขวงตลาดบางเขน เขตหลักสี่","dcode":"1041","tel":"02-5760601-9","x":670902.628,"y":1535808.216},"coordinates":[4395,8787]},{"type":"Point","properties":{"name":"ห้างฟู๊ดแลนด์ สาขาสุขุมวิท 16","address":"48 อาคารคอมลัมน์ ซ.สุขุมวิท 16 ถ.สุขุมมิตร แขวงคลองเตย เขตคลองเตย กทม.","dcode":"1033","tel":"02-2042177-8","x":668704.362,"y":1518742.836},"coordinates":[3957,3309]},{"type":"Point","properties":{"name":"บิ๊กซี สุขาภิบาล 3","address":"103 ถนนรามคำแหง แขวงมีนบุรี เขตมีนบุรี กรุงเทพฯ","dcode":"1010","tel":"-","x":686689.064,"y":1527213.147},"coordinates":[7371,5991]},{"type":"Point","properties":{"name":"คาร์ฟู สุขาภิบาล 3","address":"1245 ถนนรามคำแหง(สุขาภิบาล3)แขวงหัวหมาก เขตบางกะปิ กรุงเทพฯ","dcode":"1006","tel":"-","x":676613.162,"y":1521889.984},"coordinates":[5457,4303]},{"type":"Point","properties":{"name":"คาร์ฟู ร่มเกล้า","address":"42,44 ถ.ร่มเกล้า  แขวงมีนบุรี เขตมีนบุรี กรุงเทพฯ","dcode":"1010","tel":"-","x":688226.378,"y":1526435.048},"coordinates":[7660,5737]},{"type":"Point","properties":{"name":"เซ็นทรัล  สาขาแฟชั่นไอซ์แลนด์","address":"5/7 ม.7 ถ.รามอินทรา แขวงคันนายาว เขตคันนายาว กรุงเทพฯ","dcode":"1043","tel":"02-9475320,029475369","x":681421.06,"y":1529009.006},"coordinates":[6376,6580]},{"type":"Point","properties":{"name":"ห้างสรรพสินค้าเซ็นทรัล สาขาลาดหญ้า","address":"99 ถ.ลาดหญ้า แขวงสมเด็จเจ้าพระยา เขตคลองสาน กทม.","dcode":"1018","tel":"02-8615128,028615073","x":662456.51,"y":1518217.903},"coordinates":[2775,3153]}]}},"arcs":[],"transform":{"scale":[0.000048881108645482234,0.00002813242942393736],"translate":[100.36681025516799,13.639913767033647]}}
